[
  {
    "date": "2020-04-02",
    "lat": 46.2082,
    "lon": 5.22758,
    "code": "01",
    "name": "Ain",
    "adminLevel": 2,
    "iso3": "FRA",
    "country": "France",
    "total_cases": 105,
    "total_deaths": 14
  },
  {
    "date": "2020-04-02",
    "lat": 49.56448,
    "lon": 3.61998,
    "code": "02",
    "name": "Aisne",
    "adminLevel": 2,
    "iso3": "FRA",
    "country": "France",
    "total_cases": 186,
    "total_deaths": 67
  },
  {
    "date": "2020-04-02",
    "lat": 46.56612,
    "lon": 3.33286,
    "code": "03",
    "name": "Allier",
    "adminLevel": 2,
    "iso3": "FRA",
    "country": "France",
    "total_cases": 36,
    "total_deaths": 6
  },
  {
    "date": "2020-04-02",
    "lat": 44.09352,
    "lon": 6.23635,
    "code": "04",
    "name": "Alpes-de-Haute-Provence",
    "adminLevel": 2,
    "iso3": "FRA",
    "country": "France",
    "total_cases": 25,
    "total_deaths": 3
  },
  {
    "date": "2020-04-02",
    "lat": 44.56158,
    "lon": 6.08286,
    "code": "05",
    "name": "Hautes-Alpes",
    "adminLevel": 2,
    "iso3": "FRA",
    "country": "France",
    "total_cases": 59,
    "total_deaths": 1
  },
  {
    "date": "2020-04-02",
    "lat": 43.70025,
    "lon": 7.27774,
    "code": "06",
    "name": "Alpes-Maritimes",
    "adminLevel": 2,
    "iso3": "FRA",
    "country": "France",
    "total_cases": 182,
    "total_deaths": 32
  },
  {
    "date": "2020-04-02",
    "lat": 44.73471,
    "lon": 4.59783,
    "code": "07",
    "name": "Ardèche",
    "adminLevel": 2,
    "iso3": "FRA",
    "country": "France",
    "total_cases": 83,
    "total_deaths": 23
  },
  {
    "date": "2020-04-02",
    "lat": 49.76019,
    "lon": 4.71908,
    "code": "08",
    "name": "Ardennes",
    "adminLevel": 2,
    "iso3": "FRA",
    "country": "France",
    "total_cases": 66,
    "total_deaths": 1
  },
  {
    "date": "2020-04-02",
    "lat": 42.9637,
    "lon": 1.60547,
    "code": "09",
    "name": "Ariège",
    "adminLevel": 2,
    "iso3": "FRA",
    "country": "France",
    "total_cases": 17,
    "total_deaths": 1
  },
  {
    "date": "2020-04-02",
    "lat": 48.29792,
    "lon": 4.07428,
    "code": "10",
    "name": "Aube",
    "adminLevel": 2,
    "iso3": "FRA",
    "country": "France",
    "total_cases": 104,
    "total_deaths": 20
  },
  {
    "date": "2020-04-02",
    "lat": 43.21197,
    "lon": 2.35781,
    "code": "11",
    "name": "Aude",
    "adminLevel": 2,
    "iso3": "FRA",
    "country": "France",
    "total_cases": 101,
    "total_deaths": 21
  },
  {
    "date": "2020-04-02",
    "lat": 44.34972,
    "lon": 2.57287,
    "code": "12",
    "name": "Aveyron",
    "adminLevel": 2,
    "iso3": "FRA",
    "country": "France",
    "total_cases": 52,
    "total_deaths": 7
  },
  {
    "date": "2020-04-02",
    "lat": 43.29337,
    "lon": 5.37132,
    "code": "13",
    "name": "Bouches-du-Rhône",
    "adminLevel": 2,
    "iso3": "FRA",
    "country": "France",
    "total_cases": 946,
    "total_deaths": 65
  },
  {
    "date": "2020-04-02",
    "lat": 49.18433,
    "lon": -0.36118,
    "code": "14",
    "name": "Calvados",
    "adminLevel": 2,
    "iso3": "FRA",
    "country": "France",
    "total_cases": 126,
    "total_deaths": 9
  },
  {
    "date": "2020-04-02",
    "lat": 44.92791,
    "lon": 2.4449,
    "code": "15",
    "name": "Cantal",
    "adminLevel": 2,
    "iso3": "FRA",
    "country": "France",
    "total_cases": 21,
    "total_deaths": 0
  },
  {
    "date": "2020-04-02",
    "lat": 45.64924,
    "lon": 0.157,
    "code": "16",
    "name": "Charente",
    "adminLevel": 2,
    "iso3": "FRA",
    "country": "France",
    "total_cases": 19,
    "total_deaths": 3
  },
  {
    "date": "2020-04-02",
    "lat": 46.15943,
    "lon": -1.15164,
    "code": "17",
    "name": "Charente-Maritime",
    "adminLevel": 2,
    "iso3": "FRA",
    "country": "France",
    "total_cases": 66,
    "total_deaths": 11
  },
  {
    "date": "2020-04-02",
    "lat": 47.08603,
    "lon": 2.39312,
    "code": "18",
    "name": "Cher",
    "adminLevel": 2,
    "iso3": "FRA",
    "country": "France",
    "total_cases": 38,
    "total_deaths": 14
  },
  {
    "date": "2020-04-02",
    "lat": 45.25914,
    "lon": 1.75654,
    "code": "19",
    "name": "Corrèze",
    "adminLevel": 2,
    "iso3": "FRA",
    "country": "France",
    "total_cases": 38,
    "total_deaths": 4
  },
  {
    "date": "2020-04-02",
    "lat": 47.32698,
    "lon": 5.04299,
    "code": "21",
    "name": "Côte-d'Or",
    "adminLevel": 2,
    "iso3": "FRA",
    "country": "France",
    "total_cases": 202,
    "total_deaths": 63
  },
  {
    "date": "2020-04-02",
    "lat": 48.51572,
    "lon": -2.7639,
    "code": "22",
    "name": "Côtes d'Armor",
    "adminLevel": 2,
    "iso3": "FRA",
    "country": "France",
    "total_cases": 59,
    "total_deaths": 9
  },
  {
    "date": "2020-04-02",
    "lat": 46.1705,
    "lon": 1.87003,
    "code": "23",
    "name": "Creuse",
    "adminLevel": 2,
    "iso3": "FRA",
    "country": "France",
    "total_cases": 11,
    "total_deaths": 0
  },
  {
    "date": "2020-04-02",
    "lat": 45.18407,
    "lon": 0.7232,
    "code": "24",
    "name": "Dordogne",
    "adminLevel": 2,
    "iso3": "FRA",
    "country": "France",
    "total_cases": 15,
    "total_deaths": 1
  },
  {
    "date": "2020-04-02",
    "lat": 47.24276,
    "lon": 6.0254,
    "code": "25",
    "name": "Doubs",
    "adminLevel": 2,
    "iso3": "FRA",
    "country": "France",
    "total_cases": 186,
    "total_deaths": 35
  },
  {
    "date": "2020-04-02",
    "lat": 44.93045,
    "lon": 4.88924,
    "code": "26",
    "name": "Drôme",
    "adminLevel": 2,
    "iso3": "FRA",
    "country": "France",
    "total_cases": 229,
    "total_deaths": 44
  },
  {
    "date": "2020-04-02",
    "lat": 49.02767,
    "lon": 1.15037,
    "code": "27",
    "name": "Eure",
    "adminLevel": 2,
    "iso3": "FRA",
    "country": "France",
    "total_cases": 54,
    "total_deaths": 10
  },
  {
    "date": "2020-04-02",
    "lat": 48.44452,
    "lon": 1.48341,
    "code": "28",
    "name": "Eure-et-Loir",
    "adminLevel": 2,
    "iso3": "FRA",
    "country": "France",
    "total_cases": 146,
    "total_deaths": 18
  },
  {
    "date": "2020-04-02",
    "lat": 47.9947,
    "lon": -4.10791,
    "code": "29",
    "name": "Finistère",
    "adminLevel": 2,
    "iso3": "FRA",
    "country": "France",
    "total_cases": 66,
    "total_deaths": 7
  },
  {
    "date": "2020-04-02",
    "lat": 41.91719,
    "lon": 8.73444,
    "code": "2A",
    "name": "Corse-du-Sud",
    "adminLevel": 2,
    "iso3": "FRA",
    "country": "France",
    "total_cases": 74,
    "total_deaths": 21
  },
  {
    "date": "2020-04-02",
    "lat": 42.6999,
    "lon": 9.44988,
    "code": "2B",
    "name": "Haute-Corse",
    "adminLevel": 2,
    "iso3": "FRA",
    "country": "France",
    "total_cases": 12,
    "total_deaths": 2
  },
  {
    "date": "2020-04-02",
    "lat": 43.83512,
    "lon": 4.35855,
    "code": "30",
    "name": "Gard",
    "adminLevel": 2,
    "iso3": "FRA",
    "country": "France",
    "total_cases": 74,
    "total_deaths": 11
  },
  {
    "date": "2020-04-02",
    "lat": 43.60579,
    "lon": 1.44863,
    "code": "31",
    "name": "Haute-Garonne",
    "adminLevel": 2,
    "iso3": "FRA",
    "country": "France",
    "total_cases": 214,
    "total_deaths": 13
  },
  {
    "date": "2020-04-02",
    "lat": 43.64733,
    "lon": 0.5846,
    "code": "32",
    "name": "Gers",
    "adminLevel": 2,
    "iso3": "FRA",
    "country": "France",
    "total_cases": 27,
    "total_deaths": 3
  },
  {
    "date": "2020-04-02",
    "lat": 44.8367,
    "lon": -0.58107,
    "code": "33",
    "name": "Gironde",
    "adminLevel": 2,
    "iso3": "FRA",
    "country": "France",
    "total_cases": 298,
    "total_deaths": 33
  },
  {
    "date": "2020-04-02",
    "lat": 43.61086,
    "lon": 3.87612,
    "code": "34",
    "name": "Hérault",
    "adminLevel": 2,
    "iso3": "FRA",
    "country": "France",
    "total_cases": 245,
    "total_deaths": 39
  },
  {
    "date": "2020-04-02",
    "lat": 48.10804,
    "lon": -1.68449,
    "code": "35",
    "name": "Ille-et-Vilaine",
    "adminLevel": 2,
    "iso3": "FRA",
    "country": "France",
    "total_cases": 128,
    "total_deaths": 12
  },
  {
    "date": "2020-04-02",
    "lat": 46.81251,
    "lon": 1.69646,
    "code": "36",
    "name": "Indre",
    "adminLevel": 2,
    "iso3": "FRA",
    "country": "France",
    "total_cases": 49,
    "total_deaths": 17
  },
  {
    "date": "2020-04-02",
    "lat": 47.38846,
    "lon": 0.68957,
    "code": "37",
    "name": "Indre-et-Loire",
    "adminLevel": 2,
    "iso3": "FRA",
    "country": "France",
    "total_cases": 138,
    "total_deaths": 12
  },
  {
    "date": "2020-04-02",
    "lat": 45.194,
    "lon": 5.73201,
    "code": "38",
    "name": "Isère",
    "adminLevel": 2,
    "iso3": "FRA",
    "country": "France",
    "total_cases": 199,
    "total_deaths": 16
  },
  {
    "date": "2020-04-02",
    "lat": 46.67403,
    "lon": 5.55179,
    "code": "39",
    "name": "Jura",
    "adminLevel": 2,
    "iso3": "FRA",
    "country": "France",
    "total_cases": 55,
    "total_deaths": 4
  },
  {
    "date": "2020-04-02",
    "lat": 43.88952,
    "lon": -0.49894,
    "code": "40",
    "name": "Landes",
    "adminLevel": 2,
    "iso3": "FRA",
    "country": "France",
    "total_cases": 17,
    "total_deaths": 1
  },
  {
    "date": "2020-04-02",
    "lat": 47.58716,
    "lon": 1.33187,
    "code": "41",
    "name": "Loir-et-Cher",
    "adminLevel": 2,
    "iso3": "FRA",
    "country": "France",
    "total_cases": 73,
    "total_deaths": 7
  },
  {
    "date": "2020-04-02",
    "lat": 45.43988,
    "lon": 4.39553,
    "code": "42",
    "name": "Loire",
    "adminLevel": 2,
    "iso3": "FRA",
    "country": "France",
    "total_cases": 435,
    "total_deaths": 62
  },
  {
    "date": "2020-04-02",
    "lat": 45.04199,
    "lon": 3.88327,
    "code": "43",
    "name": "Haute-Loire",
    "adminLevel": 2,
    "iso3": "FRA",
    "country": "France",
    "total_cases": 17,
    "total_deaths": 3
  },
  {
    "date": "2020-04-02",
    "lat": 47.21811,
    "lon": -1.55306,
    "code": "44",
    "name": "Loire-Atlantique",
    "adminLevel": 2,
    "iso3": "FRA",
    "country": "France",
    "total_cases": 204,
    "total_deaths": 38
  },
  {
    "date": "2020-04-02",
    "lat": 47.90143,
    "lon": 1.90498,
    "code": "45",
    "name": "Loiret",
    "adminLevel": 2,
    "iso3": "FRA",
    "country": "France",
    "total_cases": 196,
    "total_deaths": 16
  },
  {
    "date": "2020-04-02",
    "lat": 44.44669,
    "lon": 1.44075,
    "code": "46",
    "name": "Lot",
    "adminLevel": 2,
    "iso3": "FRA",
    "country": "France",
    "total_cases": 13,
    "total_deaths": 0
  },
  {
    "date": "2020-04-02",
    "lat": 44.20213,
    "lon": 0.62055,
    "code": "47",
    "name": "Lot-et-Garonne",
    "adminLevel": 2,
    "iso3": "FRA",
    "country": "France",
    "total_cases": 30,
    "total_deaths": 3
  },
  {
    "date": "2020-04-02",
    "lat": 44.51806,
    "lon": 3.49451,
    "code": "48",
    "name": "Lozère",
    "adminLevel": 2,
    "iso3": "FRA",
    "country": "France",
    "total_cases": 9,
    "total_deaths": 0
  },
  {
    "date": "2020-04-02",
    "lat": 47.47069,
    "lon": -0.55325,
    "code": "49",
    "name": "Maine-et-Loire",
    "adminLevel": 2,
    "iso3": "FRA",
    "country": "France",
    "total_cases": 144,
    "total_deaths": 23
  },
  {
    "date": "2020-04-02",
    "lat": 49.11596,
    "lon": -1.09045,
    "code": "50",
    "name": "Manche",
    "adminLevel": 2,
    "iso3": "FRA",
    "country": "France",
    "total_cases": 57,
    "total_deaths": 11
  },
  {
    "date": "2020-04-02",
    "lat": 48.95583,
    "lon": 4.3554,
    "code": "51",
    "name": "Marne",
    "adminLevel": 2,
    "iso3": "FRA",
    "country": "France",
    "total_cases": 365,
    "total_deaths": 58
  },
  {
    "date": "2020-04-02",
    "lat": 48.11033,
    "lon": 5.136,
    "code": "52",
    "name": "Haute-Marne",
    "adminLevel": 2,
    "iso3": "FRA",
    "country": "France",
    "total_cases": 66,
    "total_deaths": 8
  },
  {
    "date": "2020-04-02",
    "lat": 48.07268,
    "lon": -0.77307,
    "code": "53",
    "name": "Mayenne",
    "adminLevel": 2,
    "iso3": "FRA",
    "country": "France",
    "total_cases": 60,
    "total_deaths": 8
  },
  {
    "date": "2020-04-02",
    "lat": 48.68954,
    "lon": 6.18335,
    "code": "54",
    "name": "Meurthe-et-Moselle",
    "adminLevel": 2,
    "iso3": "FRA",
    "country": "France",
    "total_cases": 465,
    "total_deaths": 85
  },
  {
    "date": "2020-04-02",
    "lat": 48.77099,
    "lon": 5.16482,
    "code": "55",
    "name": "Meuse",
    "adminLevel": 2,
    "iso3": "FRA",
    "country": "France",
    "total_cases": 153,
    "total_deaths": 23
  },
  {
    "date": "2020-04-02",
    "lat": 47.65834,
    "lon": -2.75985,
    "code": "56",
    "name": "Morbihan",
    "adminLevel": 2,
    "iso3": "FRA",
    "country": "France",
    "total_cases": 138,
    "total_deaths": 35
  },
  {
    "date": "2020-04-02",
    "lat": 49.1147,
    "lon": 6.17145,
    "code": "57",
    "name": "Moselle",
    "adminLevel": 2,
    "iso3": "FRA",
    "country": "France",
    "total_cases": 1030,
    "total_deaths": 242
  },
  {
    "date": "2020-04-02",
    "lat": 46.98886,
    "lon": 3.15681,
    "code": "58",
    "name": "Nièvre",
    "adminLevel": 2,
    "iso3": "FRA",
    "country": "France",
    "total_cases": 15,
    "total_deaths": 4
  },
  {
    "date": "2020-04-02",
    "lat": 50.6282,
    "lon": 3.06881,
    "code": "59",
    "name": "Nord",
    "adminLevel": 2,
    "iso3": "FRA",
    "country": "France",
    "total_cases": 703,
    "total_deaths": 101
  },
  {
    "date": "2020-04-02",
    "lat": 49.42964,
    "lon": 2.0831,
    "code": "60",
    "name": "Oise",
    "adminLevel": 2,
    "iso3": "FRA",
    "country": "France",
    "total_cases": 354,
    "total_deaths": 126
  },
  {
    "date": "2020-04-02",
    "lat": 48.43061,
    "lon": 0.08318,
    "code": "61",
    "name": "Orne",
    "adminLevel": 2,
    "iso3": "FRA",
    "country": "France",
    "total_cases": 58,
    "total_deaths": 7
  },
  {
    "date": "2020-04-02",
    "lat": 50.29169,
    "lon": 2.77954,
    "code": "62",
    "name": "Pas-de-Calais",
    "adminLevel": 2,
    "iso3": "FRA",
    "country": "France",
    "total_cases": 290,
    "total_deaths": 27
  },
  {
    "date": "2020-04-02",
    "lat": 45.77668,
    "lon": 3.07722,
    "code": "63",
    "name": "Puy-de-Dôme",
    "adminLevel": 2,
    "iso3": "FRA",
    "country": "France",
    "total_cases": 74,
    "total_deaths": 3
  },
  {
    "date": "2020-04-02",
    "lat": 43.2965,
    "lon": -0.37432,
    "code": "64",
    "name": "Pyrénées-Atlantiques",
    "adminLevel": 2,
    "iso3": "FRA",
    "country": "France",
    "total_cases": 74,
    "total_deaths": 12
  },
  {
    "date": "2020-04-02",
    "lat": 43.22987,
    "lon": 0.07319,
    "code": "65",
    "name": "Hautes-Pyrénées",
    "adminLevel": 2,
    "iso3": "FRA",
    "country": "France",
    "total_cases": 41,
    "total_deaths": 3
  },
  {
    "date": "2020-04-02",
    "lat": 42.69818,
    "lon": 2.88747,
    "code": "66",
    "name": "Pyrénées-Orientales",
    "adminLevel": 2,
    "iso3": "FRA",
    "country": "France",
    "total_cases": 112,
    "total_deaths": 16
  },
  {
    "date": "2020-04-02",
    "lat": 48.58504,
    "lon": 7.73642,
    "code": "67",
    "name": "Bas-Rhin",
    "adminLevel": 2,
    "iso3": "FRA",
    "country": "France",
    "total_cases": 1037,
    "total_deaths": 224
  },
  {
    "date": "2020-04-02",
    "lat": 48.08018,
    "lon": 7.36469,
    "code": "68",
    "name": "Haut-Rhin",
    "adminLevel": 2,
    "iso3": "FRA",
    "country": "France",
    "total_cases": 1105,
    "total_deaths": 418
  },
  {
    "date": "2020-04-02",
    "lat": 45.75919,
    "lon": 4.82966,
    "code": "69",
    "name": "Rhône",
    "adminLevel": 2,
    "iso3": "FRA",
    "country": "France",
    "total_cases": 1138,
    "total_deaths": 173
  },
  {
    "date": "2020-04-02",
    "lat": 47.61993,
    "lon": 6.1548,
    "code": "70",
    "name": "Haute-Saône",
    "adminLevel": 2,
    "iso3": "FRA",
    "country": "France",
    "total_cases": 77,
    "total_deaths": 28
  },
  {
    "date": "2020-04-02",
    "lat": 46.30304,
    "lon": 4.83305,
    "code": "71",
    "name": "Saône-et-Loire",
    "adminLevel": 2,
    "iso3": "FRA",
    "country": "France",
    "total_cases": 169,
    "total_deaths": 53
  },
  {
    "date": "2020-04-02",
    "lat": 48.00832,
    "lon": 0.19744,
    "code": "72",
    "name": "Sarthe",
    "adminLevel": 2,
    "iso3": "FRA",
    "country": "France",
    "total_cases": 106,
    "total_deaths": 16
  },
  {
    "date": "2020-04-02",
    "lat": 45.56664,
    "lon": 5.9209,
    "code": "73",
    "name": "Savoie",
    "adminLevel": 2,
    "iso3": "FRA",
    "country": "France",
    "total_cases": 115,
    "total_deaths": 14
  },
  {
    "date": "2020-04-02",
    "lat": 45.8991,
    "lon": 6.1287,
    "code": "74",
    "name": "Haute-Savoie",
    "adminLevel": 2,
    "iso3": "FRA",
    "country": "France",
    "total_cases": 254,
    "total_deaths": 46
  },
  {
    "date": "2020-04-02",
    "lat": 48.85717,
    "lon": 2.3414,
    "code": "75",
    "name": "Paris",
    "adminLevel": 2,
    "iso3": "FRA",
    "country": "France",
    "total_cases": 2838,
    "total_deaths": 455
  },
  {
    "date": "2020-04-02",
    "lat": 49.44014,
    "lon": 1.0894,
    "code": "76",
    "name": "Seine-Maritime",
    "adminLevel": 2,
    "iso3": "FRA",
    "country": "France",
    "total_cases": 335,
    "total_deaths": 44
  },
  {
    "date": "2020-04-02",
    "lat": 48.53958,
    "lon": 2.66413,
    "code": "77",
    "name": "Seine-et-Marne",
    "adminLevel": 2,
    "iso3": "FRA",
    "country": "France",
    "total_cases": 619,
    "total_deaths": 95
  },
  {
    "date": "2020-04-02",
    "lat": 48.80195,
    "lon": 2.13108,
    "code": "78",
    "name": "Yvelines",
    "adminLevel": 2,
    "iso3": "FRA",
    "country": "France",
    "total_cases": 837,
    "total_deaths": 137
  },
  {
    "date": "2020-04-02",
    "lat": 46.32124,
    "lon": -0.46338,
    "code": "79",
    "name": "Deux-Sèvres",
    "adminLevel": 2,
    "iso3": "FRA",
    "country": "France",
    "total_cases": 29,
    "total_deaths": 5
  },
  {
    "date": "2020-04-02",
    "lat": 49.89469,
    "lon": 2.29326,
    "code": "80",
    "name": "Somme",
    "adminLevel": 2,
    "iso3": "FRA",
    "country": "France",
    "total_cases": 292,
    "total_deaths": 49
  },
  {
    "date": "2020-04-02",
    "lat": 43.92617,
    "lon": 2.14838,
    "code": "81",
    "name": "Tarn",
    "adminLevel": 2,
    "iso3": "FRA",
    "country": "France",
    "total_cases": 59,
    "total_deaths": 3
  },
  {
    "date": "2020-04-02",
    "lat": 44.01675,
    "lon": 1.35217,
    "code": "82",
    "name": "Tarn-et-Garonne",
    "adminLevel": 2,
    "iso3": "FRA",
    "country": "France",
    "total_cases": 12,
    "total_deaths": 2
  },
  {
    "date": "2020-04-02",
    "lat": 43.12543,
    "lon": 5.92988,
    "code": "83",
    "name": "Var",
    "adminLevel": 2,
    "iso3": "FRA",
    "country": "France",
    "total_cases": 198,
    "total_deaths": 28
  },
  {
    "date": "2020-04-02",
    "lat": 43.95344,
    "lon": 4.80601,
    "code": "84",
    "name": "Vaucluse",
    "adminLevel": 2,
    "iso3": "FRA",
    "country": "France",
    "total_cases": 82,
    "total_deaths": 12
  },
  {
    "date": "2020-04-02",
    "lat": 46.67199,
    "lon": -1.42739,
    "code": "85",
    "name": "Vendée",
    "adminLevel": 2,
    "iso3": "FRA",
    "country": "France",
    "total_cases": 57,
    "total_deaths": 7
  },
  {
    "date": "2020-04-02",
    "lat": 46.58387,
    "lon": 0.33569,
    "code": "86",
    "name": "Vienne",
    "adminLevel": 2,
    "iso3": "FRA",
    "country": "France",
    "total_cases": 44,
    "total_deaths": 15
  },
  {
    "date": "2020-04-02",
    "lat": 45.8288,
    "lon": 1.26195,
    "code": "87",
    "name": "Haute-Vienne",
    "adminLevel": 2,
    "iso3": "FRA",
    "country": "France",
    "total_cases": 64,
    "total_deaths": 6
  },
  {
    "date": "2020-04-02",
    "lat": 48.17572,
    "lon": 6.4497,
    "code": "88",
    "name": "Vosges",
    "adminLevel": 2,
    "iso3": "FRA",
    "country": "France",
    "total_cases": 266,
    "total_deaths": 99
  },
  {
    "date": "2020-04-02",
    "lat": 47.79602,
    "lon": 3.569,
    "code": "89",
    "name": "Yonne",
    "adminLevel": 2,
    "iso3": "FRA",
    "country": "France",
    "total_cases": 97,
    "total_deaths": 9
  },
  {
    "date": "2020-04-02",
    "lat": 47.63928,
    "lon": 6.86367,
    "code": "90",
    "name": "Territoire-de-Belfort",
    "adminLevel": 2,
    "iso3": "FRA",
    "country": "France",
    "total_cases": 216,
    "total_deaths": 75
  },
  {
    "date": "2020-04-02",
    "lat": 48.63059,
    "lon": 2.43469,
    "code": "91",
    "name": "Essonne",
    "adminLevel": 2,
    "iso3": "FRA",
    "country": "France",
    "total_cases": 758,
    "total_deaths": 80
  },
  {
    "date": "2020-04-02",
    "lat": 48.88822,
    "lon": 2.19428,
    "code": "92",
    "name": "Hauts-de-Seine",
    "adminLevel": 2,
    "iso3": "FRA",
    "country": "France",
    "total_cases": 1748,
    "total_deaths": 211
  },
  {
    "date": "2020-04-02",
    "lat": 48.90479,
    "lon": 2.4457,
    "code": "93",
    "name": "Seine-Saint-Denis",
    "adminLevel": 2,
    "iso3": "FRA",
    "country": "France",
    "total_cases": 1208,
    "total_deaths": 208
  },
  {
    "date": "2020-04-02",
    "lat": 48.77745,
    "lon": 2.45518,
    "code": "94",
    "name": "Val-de-Marne",
    "adminLevel": 2,
    "iso3": "FRA",
    "country": "France",
    "total_cases": 1474,
    "total_deaths": 211
  },
  {
    "date": "2020-04-02",
    "lat": 49.05061,
    "lon": 2.1006,
    "code": "95",
    "name": "Val-D'Oise",
    "adminLevel": 2,
    "iso3": "FRA",
    "country": "France",
    "total_cases": 791,
    "total_deaths": 174
  },
  {
    "date": "2020-04-02",
    "lat": 16.24089,
    "lon": -61.53528,
    "code": "971",
    "name": "Guadeloupe",
    "adminLevel": 2,
    "iso3": "FRA",
    "country": "France",
    "total_cases": 37,
    "total_deaths": 7
  },
  {
    "date": "2020-04-02",
    "lat": 14.60623,
    "lon": -61.06268,
    "code": "972",
    "name": "Martinique",
    "adminLevel": 2,
    "iso3": "FRA",
    "country": "France",
    "total_cases": 57,
    "total_deaths": 3
  },
  {
    "date": "2020-04-02",
    "lat": 4.94173,
    "lon": -52.32089,
    "code": "973",
    "name": "Guyane",
    "adminLevel": 2,
    "iso3": "FRA",
    "country": "France",
    "total_cases": 5,
    "total_deaths": 0
  },
  {
    "date": "2020-04-02",
    "lat": -20.89266,
    "lon": 55.47104,
    "code": "974",
    "name": "La Réunion",
    "adminLevel": 2,
    "iso3": "FRA",
    "country": "France",
    "total_cases": 54,
    "total_deaths": 0
  },
  {
    "date": "2020-04-02",
    "lat": -12.82061,
    "lon": 45.14785,
    "code": "976",
    "name": "Mayotte",
    "adminLevel": 2,
    "iso3": "FRA",
    "country": "France",
    "total_cases": 9,
    "total_deaths": 2
  }
]