[
  {
    "name": "ain",
    "fullname": "Ain",
    "code": "01",
    "coord": {
      "lat": 46.2082,
      "lng": 5.22758
    }
  },
  {
    "name": "aisne",
    "fullname": "Aisne",
    "code": "02",
    "coord": {
      "lat": 49.56448,
      "lng": 3.61998
    }
  },
  {
    "name": "allier",
    "fullname": "Allier",
    "code": "03",
    "coord": {
      "lat": 46.56612,
      "lng": 3.33286
    }
  },
  {
    "name": "alpes de haute provence",
    "fullname": "Alpes-de-Haute-Provence",
    "code": "04",
    "coord": {
      "lat": 44.09352,
      "lng": 6.23635
    }
  },
  {
    "name": "hautes alpes",
    "fullname": "Hautes-Alpes",
    "code": "05",
    "coord": {
      "lat": 44.56158,
      "lng": 6.08286
    }
  },
  {
    "name": "alpes maritimes",
    "fullname": "Alpes-Maritimes",
    "code": "06",
    "coord": {
      "lat": 43.70025,
      "lng": 7.27774
    }
  },
  {
    "name": "ardèche",
    "fullname": "Ardèche",
    "code": "07",
    "coord": {
      "lat": 44.73471,
      "lng": 4.59783
    }
  },
  {
    "name": "ardennes",
    "fullname": "Ardennes",
    "code": "08",
    "coord": {
      "lat": 49.76019,
      "lng": 4.71908
    }
  },
  {
    "name": "ariège",
    "fullname": "Ariège",
    "code": "09",
    "coord": {
      "lat": 42.9637,
      "lng": 1.60547
    }
  },
  {
    "name": "aube",
    "fullname": "Aube",
    "code": "10",
    "coord": {
      "lat": 48.29792,
      "lng": 4.07428
    }
  },
  {
    "name": "aude",
    "fullname": "Aude",
    "code": "11",
    "coord": {
      "lat": 43.21197,
      "lng": 2.35781
    }
  },
  {
    "name": "aveyron",
    "fullname": "Aveyron",
    "code": "12",
    "coord": {
      "lat": 44.34972,
      "lng": 2.57287
    }
  },
  {
    "name": "bouches du rhône",
    "fullname": "Bouches-du-Rhône",
    "code": "13",
    "coord": {
      "lat": 43.29337,
      "lng": 5.37132
    }
  },
  {
    "name": "calvados",
    "fullname": "Calvados",
    "code": "14",
    "coord": {
      "lat": 49.18433,
      "lng": -0.36118
    }
  },
  {
    "name": "cantal",
    "fullname": "Cantal",
    "code": "15",
    "coord": {
      "lat": 44.92791,
      "lng": 2.4449
    }
  },
  {
    "name": "charente",
    "fullname": "Charente",
    "code": "16",
    "coord": {
      "lat": 45.64924,
      "lng": 0.157
    }
  },
  {
    "name": "charente maritime",
    "fullname": "Charente-Maritime",
    "code": "17",
    "coord": {
      "lat": 46.15943,
      "lng": -1.15164
    }
  },
  {
    "name": "cher",
    "fullname": "Cher",
    "code": "18",
    "coord": {
      "lat": 47.08603,
      "lng": 2.39312
    }
  },
  {
    "name": "corrèze",
    "fullname": "Corrèze",
    "code": "19",
    "coord": {
      "lat": 45.25914,
      "lng": 1.75654
    }
  },
  {
    "name": "corse du sud",
    "fullname": "Corse-du-Sud",
    "code": "2A",
    "coord": {
      "lat": 41.91719,
      "lng": 8.73444
    }
  },
  {
    "name": "haute corse",
    "fullname": "Haute-Corse",
    "code": "2B",
    "coord": {
      "lat": 42.6999,
      "lng": 9.44988
    }
  },
  {
    "name": "côte d'or",
    "fullname": "Côte-d'Or",
    "code": "21",
    "coord": {
      "lat": 47.32698,
      "lng": 5.04299
    }
  },
  {
    "name": "côtes d'armor",
    "fullname": "Côtes d'Armor",
    "code": "22",
    "coord": {
      "lat": 48.51572,
      "lng": -2.7639
    }
  },
  {
    "name": "creuse",
    "fullname": "Creuse",
    "code": "23",
    "coord": {
      "lat": 46.1705,
      "lng": 1.87003
    }
  },
  {
    "name": "dordogne",
    "fullname": "Dordogne",
    "code": "24",
    "coord": {
      "lat": 45.18407,
      "lng": 0.7232
    }
  },
  {
    "name": "doubs",
    "fullname": "Doubs",
    "code": "25",
    "coord": {
      "lat": 47.24276,
      "lng": 6.0254
    }
  },
  {
    "name": "drôme",
    "fullname": "Drôme",
    "code": "26",
    "coord": {
      "lat": 44.93045,
      "lng": 4.88924
    }
  },
  {
    "name": "eure",
    "fullname": "Eure",
    "code": "27",
    "coord": {
      "lat": 49.02767,
      "lng": 1.15037
    }
  },
  {
    "name": "eure et loir",
    "fullname": "Eure-et-Loir",
    "code": "28",
    "coord": {
      "lat": 48.44452,
      "lng": 1.48341
    }
  },
  {
    "name": "finistère",
    "fullname": "Finistère",
    "code": "29",
    "coord": {
      "lat": 47.9947,
      "lng": -4.10791
    }
  },
  {
    "name": "gard",
    "fullname": "Gard",
    "code": "30",
    "coord": {
      "lat": 43.83512,
      "lng": 4.35855
    }
  },
  {
    "name": "haute garonne",
    "fullname": "Haute-Garonne",
    "code": "31",
    "coord": {
      "lat": 43.60579,
      "lng": 1.44863
    }
  },
  {
    "name": "gers",
    "fullname": "Gers",
    "code": "32",
    "coord": {
      "lat": 43.64733,
      "lng": 0.5846
    }
  },
  {
    "name": "gironde",
    "fullname": "Gironde",
    "code": "33",
    "coord": {
      "lat": 44.8367,
      "lng": -0.58107
    }
  },
  {
    "name": "hérault",
    "fullname": "Hérault",
    "code": "34",
    "coord": {
      "lat": 43.61086,
      "lng": 3.87612
    }
  },
  {
    "name": "ille et vilaine",
    "fullname": "Ille-et-Vilaine",
    "code": "35",
    "coord": {
      "lat": 48.10804,
      "lng": -1.68449
    }
  },
  {
    "name": "indre",
    "fullname": "Indre",
    "code": "36",
    "coord": {
      "lat": 46.81251,
      "lng": 1.69646
    }
  },
  {
    "name": "indre et loire",
    "fullname": "Indre-et-Loire",
    "code": "37",
    "coord": {
      "lat": 47.38846,
      "lng": 0.68957
    }
  },
  {
    "name": "isère",
    "fullname": "Isère",
    "code": "38",
    "coord": {
      "lat": 45.194,
      "lng": 5.73201
    }
  },
  {
    "name": "jura",
    "fullname": "Jura",
    "code": "39",
    "coord": {
      "lat": 46.67403,
      "lng": 5.55179
    }
  },
  {
    "name": "landes",
    "fullname": "Landes",
    "code": "40",
    "coord": {
      "lat": 43.88952,
      "lng": -0.49894
    }
  },
  {
    "name": "loir et cher",
    "fullname": "Loir-et-Cher",
    "code": "41",
    "coord": {
      "lat": 47.58716,
      "lng": 1.33187
    }
  },
  {
    "name": "loire",
    "fullname": "Loire",
    "code": "42",
    "coord": {
      "lat": 45.43988,
      "lng": 4.39553
    }
  },
  {
    "name": "haute loire",
    "fullname": "Haute-Loire",
    "code": "43",
    "coord": {
      "lat": 45.04199,
      "lng": 3.88327
    }
  },
  {
    "name": "loire atlantique",
    "fullname": "Loire-Atlantique",
    "code": "44",
    "coord": {
      "lat": 47.21811,
      "lng": -1.55306
    }
  },
  {
    "name": "loiret",
    "fullname": "Loiret",
    "code": "45",
    "coord": {
      "lat": 47.90143,
      "lng": 1.90498
    }
  },
  {
    "name": "lot",
    "fullname": "Lot",
    "code": "46",
    "coord": {
      "lat": 44.44669,
      "lng": 1.44075
    }
  },
  {
    "name": "lot et garonne",
    "fullname": "Lot-et-Garonne",
    "code": "47",
    "coord": {
      "lat": 44.20213,
      "lng": 0.62055
    }
  },
  {
    "name": "lozère",
    "fullname": "Lozère",
    "code": "48",
    "coord": {
      "lat": 44.51806,
      "lng": 3.49451
    }
  },
  {
    "name": "maine et loire",
    "fullname": "Maine-et-Loire",
    "code": "49",
    "coord": {
      "lat": 47.47069,
      "lng": -0.55325
    }
  },
  {
    "name": "manche",
    "fullname": "Manche",
    "code": "50",
    "coord": {
      "lat": 49.11596,
      "lng": -1.09045
    }
  },
  {
    "name": "marne",
    "fullname": "Marne",
    "code": "51",
    "coord": {
      "lat": 48.95583,
      "lng": 4.3554
    }
  },
  {
    "name": "haute marne",
    "fullname": "Haute-Marne",
    "code": "52",
    "coord": {
      "lat": 48.11033,
      "lng": 5.136
    }
  },
  {
    "name": "mayenne",
    "fullname": "Mayenne",
    "code": "53",
    "coord": {
      "lat": 48.07268,
      "lng": -0.77307
    }
  },
  {
    "name": "meurthe et moselle",
    "fullname": "Meurthe-et-Moselle",
    "code": "54",
    "coord": {
      "lat": 48.68954,
      "lng": 6.18335
    }
  },
  {
    "name": "meuse",
    "fullname": "Meuse",
    "code": "55",
    "coord": {
      "lat": 48.77099,
      "lng": 5.16482
    }
  },
  {
    "name": "morbihan",
    "fullname": "Morbihan",
    "code": "56",
    "coord": {
      "lat": 47.65834,
      "lng": -2.75985
    }
  },
  {
    "name": "moselle",
    "fullname": "Moselle",
    "code": "57",
    "coord": {
      "lat": 49.1147,
      "lng": 6.17145
    }
  },
  {
    "name": "nièvre",
    "fullname": "Nièvre",
    "code": "58",
    "coord": {
      "lat": 46.98886,
      "lng": 3.15681
    }
  },
  {
    "name": "nord",
    "fullname": "Nord",
    "code": "59",
    "coord": {
      "lat": 50.6282,
      "lng": 3.06881
    }
  },
  {
    "name": "oise",
    "fullname": "Oise",
    "code": "60",
    "coord": {
      "lat": 49.42964,
      "lng": 2.0831
    }
  },
  {
    "name": "orne",
    "fullname": "Orne",
    "code": "61",
    "coord": {
      "lat": 48.43061,
      "lng": 0.08318
    }
  },
  {
    "name": "pas de calais",
    "fullname": "Pas-de-Calais",
    "code": "62",
    "coord": {
      "lat": 50.29169,
      "lng": 2.77954
    }
  },
  {
    "name": "puy de dôme",
    "fullname": "Puy-de-Dôme",
    "code": "63",
    "coord": {
      "lat": 45.77668,
      "lng": 3.07722
    }
  },
  {
    "name": "pyrénées atlantiques",
    "fullname": "Pyrénées-Atlantiques",
    "code": "64",
    "coord": {
      "lat": 43.2965,
      "lng": -0.37432
    }
  },
  {
    "name": "hautes pyrénées",
    "fullname": "Hautes-Pyrénées",
    "code": "65",
    "coord": {
      "lat": 43.22987,
      "lng": 0.07319
    }
  },
  {
    "name": "pyrénées orientales",
    "fullname": "Pyrénées-Orientales",
    "code": "66",
    "coord": {
      "lat": 42.69818,
      "lng": 2.88747
    }
  },
  {
    "name": "bas rhin",
    "fullname": "Bas-Rhin",
    "code": "67",
    "coord": {
      "lat": 48.58504,
      "lng": 7.73642
    }
  },
  {
    "name": "haut rhin",
    "fullname": "Haut-Rhin",
    "code": "68",
    "coord": {
      "lat": 48.08018,
      "lng": 7.36469
    }
  },
  {
    "name": "rhône",
    "fullname": "Rhône",
    "code": "69",
    "coord": {
      "lat": 45.75919,
      "lng": 4.82966
    }
  },
  {
    "name": "haute saône",
    "fullname": "Haute-Saône",
    "code": "70",
    "coord": {
      "lat": 47.61993,
      "lng": 6.1548
    }
  },
  {
    "name": "saône et loire",
    "fullname": "Saône-et-Loire",
    "code": "71",
    "coord": {
      "lat": 46.30304,
      "lng": 4.83305
    }
  },
  {
    "name": "sarthe",
    "fullname": "Sarthe",
    "code": "72",
    "coord": {
      "lat": 48.00832,
      "lng": 0.19744
    }
  },
  {
    "name": "savoie",
    "fullname": "Savoie",
    "code": "73",
    "coord": {
      "lat": 45.56664,
      "lng": 5.9209
    }
  },
  {
    "name": "haute savoie",
    "fullname": "Haute-Savoie",
    "code": "74",
    "coord": {
      "lat": 45.8991,
      "lng": 6.1287
    }
  },
  {
    "name": "paris",
    "fullname": "Paris",
    "code": "75",
    "coord": {
      "lat": 48.85717,
      "lng": 2.3414
    }
  },
  {
    "name": "seine maritime",
    "fullname": "Seine-Maritime",
    "code": "76",
    "coord": {
      "lat": 49.44014,
      "lng": 1.0894
    }
  },
  {
    "name": "seine et marne",
    "fullname": "Seine-et-Marne",
    "code": "77",
    "coord": {
      "lat": 48.53958,
      "lng": 2.66413
    }
  },
  {
    "name": "yvelines",
    "fullname": "Yvelines",
    "code": "78",
    "coord": {
      "lat": 48.80195,
      "lng": 2.13108
    }
  },
  {
    "name": "deux sèvres",
    "fullname": "Deux-Sèvres",
    "code": "79",
    "coord": {
      "lat": 46.32124,
      "lng": -0.46338
    }
  },
  {
    "name": "somme",
    "fullname": "Somme",
    "code": "80",
    "coord": {
      "lat": 49.89469,
      "lng": 2.29326
    }
  },
  {
    "name": "tarn",
    "fullname": "Tarn",
    "code": "81",
    "coord": {
      "lat": 43.92617,
      "lng": 2.14838
    }
  },
  {
    "name": "tarn et garonne",
    "fullname": "Tarn-et-Garonne",
    "code": "82",
    "coord": {
      "lat": 44.01675,
      "lng": 1.35217
    }
  },
  {
    "name": "var",
    "fullname": "Var",
    "code": "83",
    "coord": {
      "lat": 43.12543,
      "lng": 5.92988
    }
  },
  {
    "name": "vaucluse",
    "fullname": "Vaucluse",
    "code": "84",
    "coord": {
      "lat": 43.95344,
      "lng": 4.80601
    }
  },
  {
    "name": "vendée",
    "fullname": "Vendée",
    "code": "85",
    "coord": {
      "lat": 46.67199,
      "lng": -1.42739
    }
  },
  {
    "name": "vienne",
    "fullname": "Vienne",
    "code": "86",
    "coord": {
      "lat": 46.58387,
      "lng": 0.33569
    }
  },
  {
    "name": "haute vienne",
    "fullname": "Haute-Vienne",
    "code": "87",
    "coord": {
      "lat": 45.8288,
      "lng": 1.26195
    }
  },
  {
    "name": "vosges",
    "fullname": "Vosges",
    "code": "88",
    "coord": {
      "lat": 48.17572,
      "lng": 6.4497
    }
  },
  {
    "name": "yonne",
    "fullname": "Yonne",
    "code": "89",
    "coord": {
      "lat": 47.79602,
      "lng": 3.569
    }
  },
  {
    "name": "territoire de belfort",
    "fullname": "Territoire-de-Belfort",
    "code": "90",
    "coord": {
      "lat": 47.63928,
      "lng": 6.86367
    }
  },
  {
    "name": "essonne",
    "fullname": "Essonne",
    "code": "91",
    "coord": {
      "lat": 48.63059,
      "lng": 2.43469
    }
  },
  {
    "name": "hauts de seine",
    "fullname": "Hauts-de-Seine",
    "code": "92",
    "coord": {
      "lat": 48.88822,
      "lng": 2.19428
    }
  },
  {
    "name": "seine saint denis",
    "fullname": "Seine-Saint-Denis",
    "code": "93",
    "coord": {
      "lat": 48.90479,
      "lng": 2.4457
    }
  },
  {
    "name": "val de marne",
    "fullname": "Val-de-Marne",
    "code": "94",
    "coord": {
      "lat": 48.77745,
      "lng": 2.45518
    }
  },
  {
    "name": "val d'oise",
    "fullname": "Val-D'Oise",
    "code": "95",
    "coord": {
      "lat": 49.05061,
      "lng": 2.1006
    }
  },
  {
    "name": "guadeloupe",
    "fullname": "Guadeloupe",
    "code": "971",
    "coord": {
      "lat": 16.24089,
      "lng": -61.53528
    }
  },
  {
    "name": "martinique",
    "fullname": "Martinique",
    "code": "972",
    "coord": {
      "lat": 14.60623,
      "lng": -61.06268
    }
  },
  {
    "name": "guyane",
    "fullname": "Guyane",
    "code": "973",
    "coord": {
      "lat": 4.94173,
      "lng": -52.32089
    }
  },
  {
    "name": "la réunion",
    "fullname": "La Réunion",
    "code": "974",
    "coord": {
      "lat": -20.89266,
      "lng": 55.47104
    }
  },
  {
    "name": "mayotte",
    "fullname": "Mayotte",
    "code": "976",
    "coord": {
      "lat": -12.82061,
      "lng": 45.14785
    }
  },
  {
    "name": "auvergne rhône alpes",
    "fullname": "Auvergne-Rhône-Alpes",
    "coord": {
      "lat": 45.75919,
      "lng": 4.82966
    }
  },
  {
    "name": "hauts de france",
    "fullname": "Hauts-de-France",
    "coord": {
      "lat": 50.6282,
      "lng": 3.06881
    }
  },
  {
    "name": "provence alpes côte d'azur",
    "fullname": "Provence-Alpes-Côte d'Azur",
    "coord": {
      "lat": 43.29337,
      "lng": 5.37132
    }
  },
  {
    "name": "grand est",
    "fullname": "Grand Est",
    "coord": {
      "lat": 48.58504,
      "lng": 7.73642
    }
  },
  {
    "name": "occitanie",
    "fullname": "Occitanie",
    "coord": {
      "lat": 43.60579,
      "lng": 1.44863
    }
  },
  {
    "name": "normandie",
    "fullname": "Normandie",
    "coord": {
      "lat": 49.44014,
      "lng": 1.0894
    }
  },
  {
    "name": "nouvelle aquitaine",
    "fullname": "Nouvelle-Aquitaine",
    "coord": {
      "lat": 44.8367,
      "lng": -0.58107
    }
  },
  {
    "name": "centre val de loire",
    "fullname": "Centre-Val de Loire",
    "coord": {
      "lat": 47.90143,
      "lng": 1.90498
    }
  },
  {
    "name": "corse",
    "fullname": "Corse",
    "coord": {
      "lat": 41.91719,
      "lng": 8.73444
    }
  },
  {
    "name": "bourgogne franche comté",
    "fullname": "Bourgogne-Franche-Comté",
    "coord": {
      "lat": 47.32698,
      "lng": 5.04299
    }
  },
  {
    "name": "bretagne",
    "fullname": "Bretagne",
    "coord": {
      "lat": 48.10804,
      "lng": -1.68449
    }
  },
  {
    "name": "pays de la loire",
    "fullname": "Pays de la Loire",
    "coord": {
      "lat": 47.21811,
      "lng": -1.55306
    }
  },
  {
    "name": "ile de france",
    "fullname": "Ile-de-France",
    "coord": {
      "lat": 48.85717,
      "lng": 2.3414
    }
  },
  {
    "name": "guadeloupe",
    "fullname": "Guadeloupe",
    "coord": {
      "lat": 16.24089,
      "lng": -61.53528
    }
  },
  {
    "name": "martinique",
    "fullname": "Martinique",
    "coord": {
      "lat": 14.60623,
      "lng": -61.06268
    }
  },
  {
    "name": "guyane",
    "fullname": "Guyane",
    "coord": {
      "lat": 4.94173,
      "lng": -52.32089
    }
  },
  {
    "name": "la réunion",
    "fullname": "La Réunion",
    "coord": {
      "lat": -20.89266,
      "lng": 55.47104
    }
  },
  {
    "name": "mayotte",
    "fullname": "Mayotte",
    "coord": {
      "lat": -12.82061,
      "lng": 45.14785
    }
  }
]